[
    {
        "city": "Tirana",
        "country": "ALBANIA",
        "iata": "TIA",
        "icao": "LATI",
        "lat": "41.414742",
        "lon": "19.720560",
        "name": "Tirana International Airport"
    },
    {
        "city": "Algiers",
        "country": "ALGERIA",
        "iata": "ALG",
        "icao": "DAAG",
        "lat": "36.691010",
        "lon": "3.215408",
        "name": "Algiers Houari Boumediene Airport"
    },
    {
        "city": "Antigua",
        "country": "ANTIGUA AND BARBUDA",
        "iata": "ANU",
        "icao": "TAPA",
        "lat": "17.136740",
        "lon": "-61.792599",
        "name": "Antigua V. C. Bird International Airport"
    },
    {
        "city": "Buenos Aires",
        "country": "ARGENTINA",
        "iata": "EZE",
        "icao": "SAEZ",
        "lat": "-34.822201",
        "lon": "-58.535801",
        "name": "Buenos Aires Ministro Pistarini International Airport"
    },
    {
        "city": "Perth",
        "country": "AUSTRALIA",
        "iata": "PER",
        "icao": "YPPH",
        "lat": "-31.940201",
        "lon": "115.966904",
        "name": "Perth Airport"
    },
    {
        "city": "Innsbruck",
        "country": "AUSTRIA",
        "iata": "INN",
        "icao": "LOWI",
        "lat": "47.260208",
        "lon": "11.343960",
        "name": "Innsbruck Kranebitten Airport"
    },
    {
        "city": "Salzburg",
        "country": "AUSTRIA",
        "iata": "SZG",
        "icao": "LOWS",
        "lat": "47.794266",
        "lon": "13.003386",
        "name": "Salzburg Airport"
    },
    {
        "city": "Vienna",
        "country": "AUSTRIA",
        "iata": "VIE",
        "icao": "LOWW",
        "lat": "48.110271",
        "lon": "16.569719",
        "name": "Vienna International Airport"
    },
    {
        "city": "Baku",
        "country": "AZERBAIJAN",
        "iata": "GYD",
        "icao": "UBBB",
        "lat": "40.467499",
        "lon": "50.046661",
        "name": "Baku Heydar Aliyev International Airport"
    },
    {
        "city": "Nassau",
        "country": "BAHAMAS",
        "iata": "NAS",
        "icao": "MYNN",
        "lat": "25.038950",
        "lon": "-77.466202",
        "name": "Nassau Lynden Pindling International Airport"
    },
    {
        "city": "Bahrain",
        "country": "BAHRAIN",
        "iata": "BAH",
        "icao": "OBBI",
        "lat": "26.270830",
        "lon": "50.633610",
        "name": "Bahrain International Airport"
    },
    {
        "city": "Sylhet",
        "country": "BANGLADESH",
        "iata": "ZYL",
        "icao": "VGSY",
        "lat": "24.963240",
        "lon": "91.866783",
        "name": "Sylhet Osmani International Airport"
    },
    {
        "city": "Bridgetown",
        "country": "BARBADOS",
        "iata": "BGI",
        "icao": "TBPB",
        "lat": "13.074600",
        "lon": "-59.492401",
        "name": "Bridgetown Grantley Adams International Airport"
    },
    {
        "city": "Brussels",
        "country": "BELGIUM",
        "iata": "BRU",
        "icao": "EBBR",
        "lat": "50.901379",
        "lon": "4.484444",
        "name": "Brussels Airport"
    },
    {
        "city": "Bermuda",
        "country": "BERMUDA",
        "iata": "BDA",
        "icao": "TXKF",
        "lat": "32.364040",
        "lon": "-64.678703",
        "name": "Bermuda L.F. Wade International Airport"
    },
    {
        "city": "Rio de Janeiro",
        "country": "BRAZIL",
        "iata": "GIG",
        "icao": "SBGL",
        "lat": "-22.808901",
        "lon": "-43.243599",
        "name": "Rio de Janeiro Galeao International Airport"
    },
    {
        "city": "Sao Paulo",
        "country": "BRAZIL",
        "iata": "GRU",
        "icao": "SBGR",
        "lat": "-23.431999",
        "lon": "-46.469501",
        "name": "Sao Paulo Guarulhos International Airport"
    },
    {
        "city": "Sofia",
        "country": "BULGARIA",
        "iata": "SOF",
        "icao": "LBSF",
        "lat": "42.695190",
        "lon": "23.406160",
        "name": "Sofia Airport"
    },
    {
        "city": "Calgary",
        "country": "CANADA",
        "iata": "YYC",
        "icao": "CYYC",
        "lat": "51.113880",
        "lon": "-114.019997",
        "name": "Calgary International Airport"
    },
    {
        "city": "Halifax",
        "country": "CANADA",
        "iata": "YHZ",
        "icao": "CYHZ",
        "lat": "44.880829",
        "lon": "-63.508598",
        "name": "Halifax Stanfield International Airport"
    },
    {
        "city": "Hamilton",
        "country": "CANADA",
        "iata": "YHM",
        "icao": "CYHM",
        "lat": "43.173611",
        "lon": "-79.934998",
        "name": "Hamilton John C. Munro International Airport"
    },
    {
        "city": "Montreal",
        "country": "CANADA",
        "iata": "YUL",
        "icao": "CYUL",
        "lat": "45.470551",
        "lon": "-73.740799",
        "name": "Montreal Pierre Elliott Trudeau Airport"
    },
    {
        "city": "Toronto",
        "country": "CANADA",
        "iata": "YYZ",
        "icao": "CYYZ",
        "lat": "43.680634",
        "lon": "-79.627007",
        "name": "Toronto Pearson International Airport"
    },
    {
        "city": "Vancouver",
        "country": "CANADA",
        "iata": "YVR",
        "icao": "CYVR",
        "lat": "49.193878",
        "lon": "-123.183998",
        "name": "Vancouver International Airport"
    },
    {
        "city": "Santiago",
        "country": "CHILE",
        "iata": "SCL",
        "icao": "SCEL",
        "lat": "-33.392899",
        "lon": "-70.785797",
        "name": "Santiago International Airport"
    },
    {
        "city": "Beijing",
        "country": "CHINA",
        "iata": "PEK",
        "icao": "ZBAA",
        "lat": "40.084152",
        "lon": "116.592735",
        "name": "Beijing Capital International Airport"
    },
    {
        "city": "Beijing",
        "country": "CHINA",
        "iata": "PKX",
        "icao": "ZBAD",
        "lat": "39.509167",
        "lon": "116.410553",
        "name": "Beijing Daxing International Airport"
    },
    {
        "city": "Changsha",
        "country": "CHINA",
        "iata": "CSX",
        "icao": "ZGHA",
        "lat": "28.196667",
        "lon": "113.220833",
        "name": "Changsha Huanghua International Airport"
    },
    {
        "city": "Chengdu",
        "country": "CHINA",
        "iata": "TFU",
        "icao": "ZUTF",
        "lat": "30.319000",
        "lon": "104.445000",
        "name": "Chengdu Tianfu International Airport"
    },
    {
        "city": "Guangzhou",
        "country": "CHINA",
        "iata": "CAN",
        "icao": "ZGGG",
        "lat": "23.392429",
        "lon": "113.298698",
        "name": "Guangzhou Baiyun International Airport"
    },
    {
        "city": "Qingdao",
        "country": "CHINA",
        "iata": "TAO",
        "icao": "ZSQD",
        "lat": "36.369564",
        "lon": "120.085068",
        "name": "Qingdao Jiaodong International Airport"
    },
    {
        "city": "Shanghai",
        "country": "CHINA",
        "iata": "PVG",
        "icao": "ZSPD",
        "lat": "31.143370",
        "lon": "121.805199",
        "name": "Shanghai Pudong International Airport"
    },
    {
        "city": "Shenzhen",
        "country": "CHINA",
        "iata": "SZX",
        "icao": "ZGSZ",
        "lat": "22.639250",
        "lon": "113.810600",
        "name": "Shenzhen Bao'an International Airport"
    },
    {
        "city": "Bogota",
        "country": "COLOMBIA",
        "iata": "BOG",
        "icao": "SKBO",
        "lat": "4.703056",
        "lon": "-74.138298",
        "name": "Bogota El Dorado International Airport"
    },
    {
        "city": "Split",
        "country": "CROATIA",
        "iata": "SPU",
        "icao": "LDSP",
        "lat": "43.538940",
        "lon": "16.297960",
        "name": "Split Airport"
    },
    {
        "city": "Zagreb",
        "country": "CROATIA",
        "iata": "ZAG",
        "icao": "LDZA",
        "lat": "45.742931",
        "lon": "16.068769",
        "name": "Zagreb Franjo Tudman Airport"
    },
    {
        "city": "Larnaca",
        "country": "CYPRUS",
        "iata": "LCA",
        "icao": "LCLK",
        "lat": "34.875111",
        "lon": "33.624851",
        "name": "Larnaca International Airport"
    },
    {
        "city": "Pafos",
        "country": "CYPRUS",
        "iata": "PFO",
        "icao": "LCPH",
        "lat": "34.718277",
        "lon": "32.484398",
        "name": "Paphos International Airport"
    },
    {
        "city": "Prague",
        "country": "CZECHIA",
        "iata": "PRG",
        "icao": "LKPR",
        "lat": "50.100830",
        "lon": "14.260000",
        "name": "Prague Vaclav Havel Airport"
    },
    {
        "city": "Billund",
        "country": "DENMARK",
        "iata": "BLL",
        "icao": "EKBI",
        "lat": "55.740318",
        "lon": "9.151778",
        "name": "Billund Airport"
    },
    {
        "city": "Copenhagen",
        "country": "DENMARK",
        "iata": "CPH",
        "icao": "EKCH",
        "lat": "55.616959",
        "lon": "12.645637",
        "name": "Copenhagen Airport"
    },
    {
        "city": "Cairo",
        "country": "EGYPT",
        "iata": "CAI",
        "icao": "HECA",
        "lat": "30.121941",
        "lon": "31.405550",
        "name": "Cairo International Airport"
    },
    {
        "city": "Luxor",
        "country": "EGYPT",
        "iata": "LXR",
        "icao": "HELX",
        "lat": "25.671021",
        "lon": "32.706581",
        "name": "Luxor International Airport"
    },
    {
        "city": "Addis Ababa",
        "country": "ETHIOPIA",
        "iata": "ADD",
        "icao": "HAAB",
        "lat": "8.977889",
        "lon": "38.799309",
        "name": "Addis Ababa Bole Airport"
    },
    {
        "city": "Helsinki",
        "country": "FINLAND",
        "iata": "HEL",
        "icao": "EFHK",
        "lat": "60.317219",
        "lon": "24.963329",
        "name": "Helsinki Vantaa Airport"
    },
    {
        "city": "Basel",
        "country": "FRANCE",
        "iata": "BSL",
        "icao": "LFSB",
        "lat": "47.598900",
        "lon": "7.528300",
        "name": "Basel Mulhouse-Freiburg EuroAirport"
    },
    {
        "city": "Grenoble",
        "country": "FRANCE",
        "iata": "GNB",
        "icao": "LFLS",
        "lat": "45.362926",
        "lon": "5.332563",
        "name": "Grenoble Isere Airport"
    },
    {
        "city": "Lyon",
        "country": "FRANCE",
        "iata": "LYS",
        "icao": "LFLL",
        "lat": "45.719643",
        "lon": "5.089108",
        "name": "Lyon Saint Exupery Airport"
    },
    {
        "city": "Marseille",
        "country": "FRANCE",
        "iata": "MRS",
        "icao": "LFML",
        "lat": "43.436661",
        "lon": "5.215000",
        "name": "Marseille Provence Airport"
    },
    {
        "city": "Nice",
        "country": "FRANCE",
        "iata": "NCE",
        "icao": "LFMN",
        "lat": "43.665272",
        "lon": "7.215000",
        "name": "Nice Cote d'Azur Airport"
    },
    {
        "city": "Paris",
        "country": "FRANCE",
        "iata": "CDG",
        "icao": "LFPG",
        "lat": "49.012516",
        "lon": "2.555752",
        "name": "Paris Charles de Gaulle Airport"
    },
    {
        "city": "Toulouse",
        "country": "FRANCE",
        "iata": "TLS",
        "icao": "LFBO",
        "lat": "43.628101",
        "lon": "1.367263",
        "name": "Toulouse Blagnac Airport"
    },
    {
        "city": "Berlin",
        "country": "GERMANY",
        "iata": "BER",
        "icao": "EDDB",
        "lat": "52.362877",
        "lon": "13.503722",
        "name": "Berlin Brandenburg Airport"
    },
    {
        "city": "Cologne",
        "country": "GERMANY",
        "iata": "CGN",
        "icao": "EDDK",
        "lat": "50.866001",
        "lon": "7.143000",
        "name": "Cologne Bonn Airport"
    },
    {
        "city": "Dusseldorf",
        "country": "GERMANY",
        "iata": "DUS",
        "icao": "EDDL",
        "lat": "51.289452",
        "lon": "6.766775",
        "name": "Dusseldorf International Airport"
    },
    {
        "city": "Frankfurt",
        "country": "GERMANY",
        "iata": "FRA",
        "icao": "EDDF",
        "lat": "50.037796",
        "lon": "8.555783",
        "name": "Frankfurt Airport"
    },
    {
        "city": "Hamburg",
        "country": "GERMANY",
        "iata": "HAM",
        "icao": "EDDH",
        "lat": "53.630379",
        "lon": "9.988228",
        "name": "Hamburg Airport"
    },
    {
        "city": "Hannover",
        "country": "GERMANY",
        "iata": "HAJ",
        "icao": "EDDV",
        "lat": "52.461048",
        "lon": "9.685078",
        "name": "Hannover Langenhagen Airport"
    },
    {
        "city": "Munich",
        "country": "GERMANY",
        "iata": "MUC",
        "icao": "EDDM",
        "lat": "48.353779",
        "lon": "11.786080",
        "name": "Munich Airport"
    },
    {
        "city": "Nuremberg",
        "country": "GERMANY",
        "iata": "NUE",
        "icao": "EDDN",
        "lat": "49.498699",
        "lon": "11.066890",
        "name": "Nuremberg Airport"
    },
    {
        "city": "Stuttgart",
        "country": "GERMANY",
        "iata": "STR",
        "icao": "EDDS",
        "lat": "48.689869",
        "lon": "9.221964",
        "name": "Stuttgart Airport"
    },
    {
        "city": "Accra",
        "country": "GHANA",
        "iata": "ACC",
        "icao": "DGAA",
        "lat": "5.605186",
        "lon": "-0.166780",
        "name": "Accra Kotoka International Airport"
    },
    {
        "city": "Gibraltar",
        "country": "GIBRALTAR",
        "iata": "GIB",
        "icao": "LXGB",
        "lat": "36.151211",
        "lon": "-5.349660",
        "name": "Gibraltar Airport"
    },
    {
        "city": "Athens",
        "country": "GREECE",
        "iata": "ATH",
        "icao": "LGAV",
        "lat": "37.936352",
        "lon": "23.944460",
        "name": "Athens Eleftherios Venizelos"
    },
    {
        "city": "Chania",
        "country": "GREECE",
        "iata": "CHQ",
        "icao": "LGSA",
        "lat": "35.531738",
        "lon": "24.149670",
        "name": "Chania International Airport"
    },
    {
        "city": "Corfu",
        "country": "GREECE",
        "iata": "CFU",
        "icao": "LGKR",
        "lat": "39.601940",
        "lon": "19.911659",
        "name": "Corfu International Airport"
    },
    {
        "city": "Heraklion",
        "country": "GREECE",
        "iata": "HER",
        "icao": "LGIR",
        "lat": "35.339710",
        "lon": "25.180290",
        "name": "Heraklion International Airport"
    },
    {
        "city": "Santorini",
        "country": "GREECE",
        "iata": "JTR",
        "icao": "LGSR",
        "lat": "36.399158",
        "lon": "25.479330",
        "name": "Santorini Thira National Airport"
    },
    {
        "city": "Thessaloniki",
        "country": "GREECE",
        "iata": "SKG",
        "icao": "LGTS",
        "lat": "40.519718",
        "lon": "22.970949",
        "name": "Thessaloniki International Airport"
    },
    {
        "city": "Hong Kong",
        "country": "HONG KONG",
        "iata": "HKG",
        "icao": "VHHH",
        "lat": "22.309616",
        "lon": "113.916237",
        "name": "Hong Kong International Airport"
    },
    {
        "city": "Budapest",
        "country": "HUNGARY",
        "iata": "BUD",
        "icao": "LHBP",
        "lat": "47.436932",
        "lon": "19.255590",
        "name": "Budapest Ferenc Liszt International Airport"
    },
    {
        "city": "Reykjavik",
        "country": "ICELAND",
        "iata": "KEF",
        "icao": "BIKF",
        "lat": "63.985001",
        "lon": "-22.605499",
        "name": "Keflavik International Airport"
    },
    {
        "city": "Bengaluru",
        "country": "INDIA",
        "iata": "BLR",
        "icao": "VOBL",
        "lat": "13.198889",
        "lon": "77.705559",
        "name": "Bengaluru Kempegowda International Airport"
    },
    {
        "city": "Chennai",
        "country": "INDIA",
        "iata": "MAA",
        "icao": "VOMM",
        "lat": "12.994410",
        "lon": "80.180511",
        "name": "Chennai International Airport"
    },
    {
        "city": "Delhi",
        "country": "INDIA",
        "iata": "DEL",
        "icao": "VIDP",
        "lat": "28.566500",
        "lon": "77.103081",
        "name": "Delhi Indira Gandhi International Airport"
    },
    {
        "city": "Hyderabad",
        "country": "INDIA",
        "iata": "HYD",
        "icao": "VOHS",
        "lat": "17.230000",
        "lon": "78.431946",
        "name": "Hyderabad Rajiv Gandhi International Airport"
    },
    {
        "city": "Mumbai",
        "country": "INDIA",
        "iata": "BOM",
        "icao": "VABB",
        "lat": "19.088680",
        "lon": "72.867912",
        "name": "Mumbai Chhatrapati Shivaji International Airport"
    },
    {
        "city": "Tehran",
        "country": "IRAN",
        "iata": "IKA",
        "icao": "OIIE",
        "lat": "35.416111",
        "lon": "51.152222",
        "name": "Tehran Imam Khomeini International Airport"
    },
    {
        "city": "Cork",
        "country": "IRELAND",
        "iata": "ORK",
        "icao": "EICK",
        "lat": "51.841381",
        "lon": "-8.491110",
        "name": "Cork Airport"
    },
    {
        "city": "Dublin",
        "country": "IRELAND",
        "iata": "DUB",
        "icao": "EIDW",
        "lat": "53.421379",
        "lon": "-6.270000",
        "name": "Dublin Airport"
    },
    {
        "city": "Knock",
        "country": "IRELAND",
        "iata": "NOC",
        "icao": "EIKN",
        "lat": "53.910290",
        "lon": "-8.818490",
        "name": "Knock Ireland West Airport"
    },
    {
        "city": "Shannon",
        "country": "IRELAND",
        "iata": "SNN",
        "icao": "EINN",
        "lat": "52.701969",
        "lon": "-8.924810",
        "name": "Shannon Airport"
    },
    {
        "city": "Isle of Man",
        "country": "ISLE OF MAN",
        "iata": "IOM",
        "icao": "EGNS",
        "lat": "54.083328",
        "lon": "-4.623880",
        "name": "Isle of Man Airport"
    },
    {
        "city": "Tel Aviv",
        "country": "ISRAEL",
        "iata": "TLV",
        "icao": "LLBG",
        "lat": "32.011379",
        "lon": "34.886662",
        "name": "Tel Aviv Ben Gurion International Airport"
    },
    {
        "city": "Bologna",
        "country": "ITALY",
        "iata": "BLQ",
        "icao": "LIPE",
        "lat": "44.535439",
        "lon": "11.288660",
        "name": "Bologna Guglielmo Marconi Airport"
    },
    {
        "city": "Milan",
        "country": "ITALY",
        "iata": "LIN",
        "icao": "LIML",
        "lat": "45.445099",
        "lon": "9.276739",
        "name": "Milan Linate Airport"
    },
    {
        "city": "Milan",
        "country": "ITALY",
        "iata": "MXP",
        "icao": "LIMC",
        "lat": "45.630600",
        "lon": "8.728111",
        "name": "Milan Malpensa Airport"
    },
    {
        "city": "Naples",
        "country": "ITALY",
        "iata": "NAP",
        "icao": "LIRN",
        "lat": "40.886028",
        "lon": "14.290780",
        "name": "Naples Airport"
    },
    {
        "city": "Palermo",
        "country": "ITALY",
        "iata": "PMO",
        "icao": "LICJ",
        "lat": "38.175949",
        "lon": "13.091010",
        "name": "Palermo Falcone-Borsellino Airport"
    },
    {
        "city": "Pisa",
        "country": "ITALY",
        "iata": "PSA",
        "icao": "LIRP",
        "lat": "43.683910",
        "lon": "10.392750",
        "name": "Pisa Galileo Galilei Airport"
    },
    {
        "city": "Rome",
        "country": "ITALY",
        "iata": "FCO",
        "icao": "LIRF",
        "lat": "41.804470",
        "lon": "12.250790",
        "name": "Rome Leonardo da Vinci Fiumicino Airport"
    },
    {
        "city": "Venice",
        "country": "ITALY",
        "iata": "VCE",
        "icao": "LIPZ",
        "lat": "45.505268",
        "lon": "12.351940",
        "name": "Venice Marco Polo Airport"
    },
    {
        "city": "Montego Bay",
        "country": "JAMAICA",
        "iata": "MBJ",
        "icao": "MKJS",
        "lat": "18.503710",
        "lon": "-77.913300",
        "name": "Montego Bay Sangster International Airport"
    },
    {
        "city": "Tokyo",
        "country": "JAPAN",
        "iata": "HND",
        "icao": "RJTT",
        "lat": "35.552250",
        "lon": "139.779602",
        "name": "Tokyo Haneda International Airport"
    },
    {
        "city": "Jersey",
        "country": "JERSEY",
        "iata": "JER",
        "icao": "EGJJ",
        "lat": "49.207939",
        "lon": "-2.195500",
        "name": "Jersey Airport"
    },
    {
        "city": "Amman",
        "country": "JORDAN",
        "iata": "AMM",
        "icao": "OJAI",
        "lat": "31.722549",
        "lon": "35.993210",
        "name": "Amman Queen Alia International Airport"
    },
    {
        "city": "Aktau",
        "country": "KAZAKHSTAN",
        "iata": "SCO",
        "icao": "UATE",
        "lat": "43.860050",
        "lon": "51.091969",
        "name": "Aktau Airport"
    },
    {
        "city": "Nairobi",
        "country": "KENYA",
        "iata": "NBO",
        "icao": "HKJK",
        "lat": "-1.319240",
        "lon": "36.927769",
        "name": "Nairobi Jomo Kenyatta International Airport"
    },
    {
        "city": "Kuwait City",
        "country": "KUWAIT",
        "iata": "KWI",
        "icao": "OKKK",
        "lat": "29.226561",
        "lon": "47.968922",
        "name": "Kuwait International Airport"
    },
    {
        "city": "Beirut",
        "country": "LEBANON",
        "iata": "BEY",
        "icao": "OLBA",
        "lat": "33.820930",
        "lon": "35.488380",
        "name": "Beirut Rafic Hariri International Airport"
    },
    {
        "city": "Luxembourg",
        "country": "LUXEMBOURG",
        "iata": "LUX",
        "icao": "ELLX",
        "lat": "49.623329",
        "lon": "6.204444",
        "name": "Luxembourg Findel Airport"
    },
    {
        "city": "Kuala Lumpur",
        "country": "MALAYSIA",
        "iata": "KUL",
        "icao": "WMKK",
        "lat": "2.745578",
        "lon": "101.709900",
        "name": "Kuala Lumpur International Airport"
    },
    {
        "city": "Male",
        "country": "MALDIVES",
        "iata": "MLE",
        "icao": "VRMM",
        "lat": "4.191833",
        "lon": "73.529121",
        "name": "Male Velana International Airport"
    },
    {
        "city": "Malta",
        "country": "MALTA",
        "iata": "MLA",
        "icao": "LMML",
        "lat": "35.857491",
        "lon": "14.477500",
        "name": "Malta Luqa International Airport"
    },
    {
        "city": "Port Louis",
        "country": "MAURITIUS",
        "iata": "MRU",
        "icao": "FIMP",
        "lat": "-20.430201",
        "lon": "57.683601",
        "name": "Port Louis Sir Seewoosagur Ramgoolam Airport"
    },
    {
        "city": "Mexico City",
        "country": "MEXICO",
        "iata": "MEX",
        "icao": "MMMX",
        "lat": "19.436300",
        "lon": "-99.071999",
        "name": "Mexico City International Airport"
    },
    {
        "city": "Casablanca",
        "country": "MOROCCO",
        "iata": "CMN",
        "icao": "GMMN",
        "lat": "33.367458",
        "lon": "-7.589960",
        "name": "Casablanca Mohammed V International Airport"
    },
    {
        "city": "Marrakesh ",
        "country": "MOROCCO",
        "iata": "RAK",
        "icao": "GMMX",
        "lat": "31.606880",
        "lon": "-8.036300",
        "name": "Marrakesh Menara Airport"
    },
    {
        "city": "Amsterdam",
        "country": "NETHERLANDS",
        "iata": "AMS",
        "icao": "EHAM",
        "lat": "52.308609",
        "lon": "4.763889",
        "name": "Amsterdam Schiphol Airport"
    },
    {
        "city": "Abuja",
        "country": "NIGERIA",
        "iata": "ABV",
        "icao": "DNAA",
        "lat": "9.006792",
        "lon": "7.263172",
        "name": "Abuja Nnamdi Azikiwe International Airport"
    },
    {
        "city": "Lagos",
        "country": "NIGERIA",
        "iata": "LOS",
        "icao": "DNMM",
        "lat": "6.577369",
        "lon": "3.321156",
        "name": "Lagos Murtala Mohammed Airport"
    },
    {
        "city": "Oslo",
        "country": "NORWAY",
        "iata": "OSL",
        "icao": "ENGM",
        "lat": "60.193909",
        "lon": "11.100360",
        "name": "Oslo Gardermoen Airport"
    },
    {
        "city": "Stavanger",
        "country": "NORWAY",
        "iata": "SVG",
        "icao": "ENZV",
        "lat": "58.876770",
        "lon": "5.637856",
        "name": "Stavanger Sola Airport"
    },
    {
        "city": "Muscat",
        "country": "OMAN",
        "iata": "MCT",
        "icao": "OOMS",
        "lat": "23.593269",
        "lon": "58.284439",
        "name": "Muscat International Airport"
    },
    {
        "city": "Islamabad",
        "country": "PAKISTAN",
        "iata": "ISB",
        "icao": "OPIS",
        "lat": "33.549084",
        "lon": "72.825653",
        "name": "Islamabad International Airport"
    },
    {
        "city": "Lahore",
        "country": "PAKISTAN",
        "iata": "LHE",
        "icao": "OPLA",
        "lat": "31.521561",
        "lon": "74.403587",
        "name": "Lahore Allama Iqbal International Airport"
    },
    {
        "city": "Krakow",
        "country": "POLAND",
        "iata": "KRK",
        "icao": "EPKK",
        "lat": "50.077728",
        "lon": "19.784830",
        "name": "Krakow John Paul II International Airport"
    },
    {
        "city": "Warsaw",
        "country": "POLAND",
        "iata": "WAW",
        "icao": "EPWA",
        "lat": "52.165749",
        "lon": "20.967119",
        "name": "Warsaw Chopin Airport"
    },
    {
        "city": "Faro",
        "country": "PORTUGAL",
        "iata": "FAO",
        "icao": "LPFR",
        "lat": "37.014420",
        "lon": "-7.965910",
        "name": "Faro Airport"
    },
    {
        "city": "Funchal",
        "country": "PORTUGAL",
        "iata": "FNC",
        "icao": "LPMA",
        "lat": "32.697880",
        "lon": "-16.774401",
        "name": "Funchal Cristiano Ronaldo Airport"
    },
    {
        "city": "Lisbon",
        "country": "PORTUGAL",
        "iata": "LIS",
        "icao": "LPPT",
        "lat": "38.781311",
        "lon": "-9.135910",
        "name": "Lisbon Humberto Delgado Airport"
    },
    {
        "city": "Porto",
        "country": "PORTUGAL",
        "iata": "OPO",
        "icao": "LPPR",
        "lat": "41.248051",
        "lon": "-8.681380",
        "name": "Porto Francisco de Sa Carneiro Airport"
    },
    {
        "city": "Doha",
        "country": "QATAR",
        "iata": "DOH",
        "icao": "OTHH",
        "lat": "25.272524",
        "lon": "51.608604",
        "name": "Doha Hamad International Airport"
    },
    {
        "city": "Bucharest",
        "country": "ROMANIA",
        "iata": "OTP",
        "icao": "LROP",
        "lat": "44.572159",
        "lon": "26.102171",
        "name": "Bucharest Henri Coanda International Airport"
    },
    {
        "city": "Kigali",
        "country": "RWANDA",
        "iata": "KGL",
        "icao": "HRYR",
        "lat": "-1.968620",
        "lon": "30.139450",
        "name": "Kigali Airport"
    },
    {
        "city": "Jeddah",
        "country": "SAUDI ARABIA",
        "iata": "JED",
        "icao": "OEJN",
        "lat": "21.679560",
        "lon": "39.156528",
        "name": "Jeddah King Abdulaziz International Airport"
    },
    {
        "city": "Neom",
        "country": "SAUDI ARABIA",
        "iata": "NUM",
        "icao": "OENN",
        "lat": "27.917212",
        "lon": "35.294044",
        "name": "Neom Bay Airport"
    },
    {
        "city": "Riyadh",
        "country": "SAUDI ARABIA",
        "iata": "RUH",
        "icao": "OERK",
        "lat": "24.957640",
        "lon": "46.698769",
        "name": "Riyadh King Khalid International Airport"
    },
    {
        "city": "Belgrade",
        "country": "SERBIA",
        "iata": "BEG",
        "icao": "LYBE",
        "lat": "44.818439",
        "lon": "20.309130",
        "name": "Belgrade Nikola Tesla Airport"
    },
    {
        "city": "Singapore",
        "country": "SINGAPORE",
        "iata": "SIN",
        "icao": "WSSS",
        "lat": "1.350189",
        "lon": "103.994400",
        "name": "Singapore Changi Airport"
    },
    {
        "city": "Ljubljana",
        "country": "SLOVENIA",
        "iata": "LJU",
        "icao": "LJLJ",
        "lat": "46.223679",
        "lon": "14.457610",
        "name": "Ljubljana Joze Pucnik Airport"
    },
    {
        "city": "Cape Town",
        "country": "SOUTH AFRICA",
        "iata": "CPT",
        "icao": "FACT",
        "lat": "-33.964802",
        "lon": "18.601660",
        "name": "Cape Town International Airport"
    },
    {
        "city": "Johannesburg",
        "country": "SOUTH AFRICA",
        "iata": "JNB",
        "icao": "FAOR",
        "lat": "-26.139099",
        "lon": "28.246000",
        "name": "Johannesburg OR Tambo International Airport"
    },
    {
        "city": "Seoul",
        "country": "SOUTH KOREA",
        "iata": "ICN",
        "icao": "RKSI",
        "lat": "37.469070",
        "lon": "126.450500",
        "name": "Seoul Incheon International Airport"
    },
    {
        "city": "Barcelona",
        "country": "SPAIN",
        "iata": "BCN",
        "icao": "LEBL",
        "lat": "41.297070",
        "lon": "2.078463",
        "name": "Barcelona El Prat Airport"
    },
    {
        "city": "Ibiza",
        "country": "SPAIN",
        "iata": "IBZ",
        "icao": "LEIB",
        "lat": "38.872849",
        "lon": "1.373117",
        "name": "Ibiza Airport"
    },
    {
        "city": "Madrid",
        "country": "SPAIN",
        "iata": "MAD",
        "icao": "LEMD",
        "lat": "40.488701",
        "lon": "-3.570000",
        "name": "Madrid Barajas Airport"
    },
    {
        "city": "Malaga",
        "country": "SPAIN",
        "iata": "AGP",
        "icao": "LEMG",
        "lat": "36.679596",
        "lon": "-4.496117",
        "name": "Malaga Costa Del Sol Airport"
    },
    {
        "city": "Palma de Mallorca",
        "country": "SPAIN",
        "iata": "PMI",
        "icao": "LEPA",
        "lat": "39.551670",
        "lon": "2.738808",
        "name": "Palma de Mallorca Airport"
    },
    {
        "city": "Tenerife",
        "country": "SPAIN",
        "iata": "TFS",
        "icao": "GCTS",
        "lat": "28.044470",
        "lon": "-16.572399",
        "name": "Tenerife South Airport"
    },
    {
        "city": "Valencia",
        "country": "SPAIN",
        "iata": "VLC",
        "icao": "LEVC",
        "lat": "39.489311",
        "lon": "-0.481620",
        "name": "Valencia Airport"
    },
    {
        "city": "Zaragoza",
        "country": "SPAIN",
        "iata": "ZAZ",
        "icao": "LEZG",
        "lat": "41.666241",
        "lon": "-1.041550",
        "name": "Zaragoza Airport"
    },
    {
        "city": "Colombo",
        "country": "SRI LANKA",
        "iata": "CMB",
        "icao": "VCBI",
        "lat": "7.181139",
        "lon": "79.883789",
        "name": "Colombo Bandaranaike International Airport"
    },
    {
        "city": "Gothenburg",
        "country": "SWEDEN",
        "iata": "GOT",
        "icao": "ESGG",
        "lat": "57.662830",
        "lon": "12.279810",
        "name": "Gothenburg Landvetter Airport"
    },
    {
        "city": "Stockholm",
        "country": "SWEDEN",
        "iata": "ARN",
        "icao": "ESSA",
        "lat": "59.653545",
        "lon": "17.939816",
        "name": "Stockholm Arlanda Airport"
    },
    {
        "city": "Geneva",
        "country": "SWITZERLAND",
        "iata": "GVA",
        "icao": "LSGG",
        "lat": "46.238060",
        "lon": "6.108950",
        "name": "Geneva International Airport"
    },
    {
        "city": "Zurich",
        "country": "SWITZERLAND",
        "iata": "ZRH",
        "icao": "LSZH",
        "lat": "47.464722",
        "lon": "8.549167",
        "name": "Zurich Airport"
    },
    {
        "city": "Taipei",
        "country": "TAIWAN",
        "iata": "TPE",
        "icao": "RCTP",
        "lat": "25.077730",
        "lon": "121.232803",
        "name": "Taipei Taoyuan International Airport"
    },
    {
        "city": "Bangkok",
        "country": "THAILAND",
        "iata": "BKK",
        "icao": "VTBS",
        "lat": "13.681100",
        "lon": "100.747200",
        "name": "Bangkok Suvarnabhumi Airport"
    },
    {
        "city": "Tunis",
        "country": "TUNISIA",
        "iata": "TUN",
        "icao": "DTTA",
        "lat": "36.851028",
        "lon": "10.227210",
        "name": "Tunis Carthage International Airport"
    },
    {
        "city": "Dalaman",
        "country": "TURKEY",
        "iata": "DLM",
        "icao": "LTBS",
        "lat": "36.713051",
        "lon": "28.792500",
        "name": "Dalaman Airport"
    },
    {
        "city": "Istanbul",
        "country": "TURKEY",
        "iata": "IST",
        "icao": "LTFM",
        "lat": "41.267052",
        "lon": "28.729757",
        "name": "Istanbul Airport"
    },
    {
        "city": "Abu Dhabi",
        "country": "UNITED ARAB EMIRATES",
        "iata": "AUH",
        "icao": "OMAA",
        "lat": "24.432970",
        "lon": "54.651131",
        "name": "Abu Dhabi International Airport"
    },
    {
        "city": "Dubai",
        "country": "UNITED ARAB EMIRATES",
        "iata": "DXB",
        "icao": "OMDB",
        "lat": "25.252769",
        "lon": "55.364441",
        "name": "Dubai International Airport"
    },
    {
        "city": "Dubai",
        "country": "UNITED ARAB EMIRATES",
        "iata": "DWC",
        "icao": "OMDW",
        "lat": "24.886110",
        "lon": "55.172222",
        "name": "Dubai World Central International Airport"
    },
    {
        "city": "Aberdeen",
        "country": "UNITED KINGDOM",
        "iata": "ABZ",
        "icao": "EGPD",
        "lat": "57.201939",
        "lon": "-2.197770",
        "name": "Aberdeen International Airport"
    },
    {
        "city": "Belfast",
        "country": "UNITED KINGDOM",
        "iata": "BHD",
        "icao": "EGAC",
        "lat": "54.618050",
        "lon": "-5.872500",
        "name": "Belfast City George Best  Airport"
    },
    {
        "city": "Edinburgh",
        "country": "UNITED KINGDOM",
        "iata": "EDI",
        "icao": "EGPH",
        "lat": "55.950001",
        "lon": "-3.372500",
        "name": "Edinburgh Airport"
    },
    {
        "city": "Glasgow",
        "country": "UNITED KINGDOM",
        "iata": "GLA",
        "icao": "EGPF",
        "lat": "55.871941",
        "lon": "-4.433050",
        "name": "Glasgow International Airport"
    },
    {
        "city": "Inverness",
        "country": "UNITED KINGDOM",
        "iata": "INV",
        "icao": "EGPE",
        "lat": "57.542500",
        "lon": "-4.047500",
        "name": "Inverness Airport"
    },
    {
        "city": "London",
        "country": "UNITED KINGDOM",
        "iata": "LGW",
        "icao": "EGKK",
        "lat": "51.148048",
        "lon": "-0.190270",
        "name": "London Gatwick Airport"
    },
    {
        "city": "Manchester",
        "country": "UNITED KINGDOM",
        "iata": "MAN",
        "icao": "EGCC",
        "lat": "53.353741",
        "lon": "-2.274950",
        "name": "Manchester Airport"
    },
    {
        "city": "Newcastle",
        "country": "UNITED KINGDOM",
        "iata": "NCL",
        "icao": "EGNT",
        "lat": "55.037498",
        "lon": "-1.691660",
        "name": "Newcastle Airport"
    },
    {
        "city": "Atlanta",
        "country": "UNITED STATES",
        "iata": "ATL",
        "icao": "KATL",
        "lat": "33.636719",
        "lon": "-84.428001",
        "name": "Atlanta Hartsfield-Jackson International Airport"
    },
    {
        "city": "Austin",
        "country": "UNITED STATES",
        "iata": "AUS",
        "icao": "KAUS",
        "lat": "30.194521",
        "lon": "-97.669800",
        "name": "Austin Bergstrom International Airport"
    },
    {
        "city": "Baltimore",
        "country": "UNITED STATES",
        "iata": "BWI",
        "icao": "KBWI",
        "lat": "39.175362",
        "lon": "-76.668297",
        "name": "Baltimore Washington International Airport"
    },
    {
        "city": "Boston",
        "country": "UNITED STATES",
        "iata": "BOS",
        "icao": "KBOS",
        "lat": "42.362968",
        "lon": "-71.006401",
        "name": "Boston Logan International Airport"
    },
    {
        "city": "Charlotte",
        "country": "UNITED STATES",
        "iata": "CLT",
        "icao": "KCLT",
        "lat": "35.214001",
        "lon": "-80.943100",
        "name": "Charlotte Douglas International Airport"
    },
    {
        "city": "Chicago",
        "country": "UNITED STATES",
        "iata": "ORD",
        "icao": "KORD",
        "lat": "41.978142",
        "lon": "-87.905800",
        "name": "Chicago O'Hare International Airport"
    },
    {
        "city": "Dallas",
        "country": "UNITED STATES",
        "iata": "DFW",
        "icao": "KDFW",
        "lat": "32.896820",
        "lon": "-97.037903",
        "name": "Dallas Fort Worth International Airport"
    },
    {
        "city": "Denver",
        "country": "UNITED STATES",
        "iata": "DEN",
        "icao": "KDEN",
        "lat": "39.858784",
        "lon": "-104.673882",
        "name": "Denver International Airport"
    },
    {
        "city": "Detroit",
        "country": "UNITED STATES",
        "iata": "DTW",
        "icao": "KDTW",
        "lat": "42.212440",
        "lon": "-83.353302",
        "name": "Detroit Metropolitan Wayne County Airport"
    },
    {
        "city": "Houston",
        "country": "UNITED STATES",
        "iata": "IAH",
        "icao": "KIAH",
        "lat": "29.984430",
        "lon": "-95.341400",
        "name": "Houston George Bush Intercontinental Airport"
    },
    {
        "city": "Las Vegas",
        "country": "UNITED STATES",
        "iata": "LAS",
        "icao": "KLAS",
        "lat": "36.080051",
        "lon": "-115.152000",
        "name": "Las Vegas Harry Reid International Airport"
    },
    {
        "city": "Los Angeles",
        "country": "UNITED STATES",
        "iata": "LAX",
        "icao": "KLAX",
        "lat": "33.942520",
        "lon": "-118.406998",
        "name": "Los Angeles International Airport"
    },
    {
        "city": "Miami",
        "country": "UNITED STATES",
        "iata": "MIA",
        "icao": "KMIA",
        "lat": "25.793249",
        "lon": "-80.290497",
        "name": "Miami International Airport"
    },
    {
        "city": "Minneapolis",
        "country": "UNITED STATES",
        "iata": "MSP",
        "icao": "KMSP",
        "lat": "44.881950",
        "lon": "-93.221703",
        "name": "Minneapolis Saint Paul International Airport"
    },
    {
        "city": "Nashville",
        "country": "UNITED STATES",
        "iata": "BNA",
        "icao": "KBNA",
        "lat": "36.124470",
        "lon": "-86.678101",
        "name": "Nashville International Airport"
    },
    {
        "city": "New Orleans",
        "country": "UNITED STATES",
        "iata": "MSY",
        "icao": "KMSY",
        "lat": "29.993380",
        "lon": "-90.258003",
        "name": "New Orleans Louis Armstrong International Airport"
    },
    {
        "city": "New York",
        "country": "UNITED STATES",
        "iata": "JFK",
        "icao": "KJFK",
        "lat": "40.639751",
        "lon": "-73.778900",
        "name": "New York John F. Kennedy International Airport"
    },
    {
        "city": "New York",
        "country": "UNITED STATES",
        "iata": "EWR",
        "icao": "KEWR",
        "lat": "40.692501",
        "lon": "-74.168602",
        "name": "New York Newark Liberty International Airport"
    },
    {
        "city": "Orlando",
        "country": "UNITED STATES",
        "iata": "MCO",
        "icao": "KMCO",
        "lat": "28.429390",
        "lon": "-81.308899",
        "name": "Orlando International Airport"
    },
    {
        "city": "Philadelphia",
        "country": "UNITED STATES",
        "iata": "PHL",
        "icao": "KPHL",
        "lat": "39.871941",
        "lon": "-75.241096",
        "name": "Philadelphia International Airport"
    },
    {
        "city": "Phoenix",
        "country": "UNITED STATES",
        "iata": "PHX",
        "icao": "KPHX",
        "lat": "33.434269",
        "lon": "-112.011002",
        "name": "Phoenix Sky Harbor International Airport"
    },
    {
        "city": "Pittsburgh",
        "country": "UNITED STATES",
        "iata": "PIT",
        "icao": "KPIT",
        "lat": "40.491470",
        "lon": "-80.232803",
        "name": "Pittsburgh International Airport"
    },
    {
        "city": "Portland",
        "country": "UNITED STATES",
        "iata": "PDX",
        "icao": "KPDX",
        "lat": "45.588718",
        "lon": "-122.597000",
        "name": "Portland International Airport"
    },
    {
        "city": "Raleigh-Durham",
        "country": "UNITED STATES",
        "iata": "RDU",
        "icao": "KRDU",
        "lat": "35.877628",
        "lon": "-78.787399",
        "name": "Raleigh-Durham International Airport"
    },
    {
        "city": "Salt Lake City",
        "country": "UNITED STATES",
        "iata": "SLC",
        "icao": "KSLC",
        "lat": "40.788380",
        "lon": "-111.976997",
        "name": "Salt Lake City International Airport"
    },
    {
        "city": "San Diego",
        "country": "UNITED STATES",
        "iata": "SAN",
        "icao": "KSAN",
        "lat": "32.733551",
        "lon": "-117.189003",
        "name": "San Diego International Airport"
    },
    {
        "city": "San Francisco",
        "country": "UNITED STATES",
        "iata": "SFO",
        "icao": "KSFO",
        "lat": "37.618969",
        "lon": "-122.374001",
        "name": "San Francisco International Airport"
    },
    {
        "city": "San Jose",
        "country": "UNITED STATES",
        "iata": "SJC",
        "icao": "KSJC",
        "lat": "37.362659",
        "lon": "-121.929001",
        "name": "San Jose International Airport"
    },
    {
        "city": "Seattle",
        "country": "UNITED STATES",
        "iata": "SEA",
        "icao": "KSEA",
        "lat": "47.448200",
        "lon": "-122.311203",
        "name": "Seattle Tacoma International Airport"
    },
    {
        "city": "Tampa",
        "country": "UNITED STATES",
        "iata": "TPA",
        "icao": "KTPA",
        "lat": "27.975470",
        "lon": "-82.533203",
        "name": "Tampa International Airport"
    },
    {
        "city": "Washington",
        "country": "UNITED STATES",
        "iata": "IAD",
        "icao": "KIAD",
        "lat": "38.947441",
        "lon": "-77.459900",
        "name": "Washington Dulles International Airport"
    },
    {
        "city": "Tashkent",
        "country": "UZBEKISTAN",
        "iata": "TAS",
        "icao": "UTTT",
        "lat": "41.257858",
        "lon": "69.281181",
        "name": "Tashkent International Airport"
    },
    {
        "city": "Hanoi",
        "country": "VIETNAM",
        "iata": "HAN",
        "icao": "VVNB",
        "lat": "21.221189",
        "lon": "105.807098",
        "name": "Hanoi Noi Bai International Airport"
    },
    {
        "city": "Ho Chi Minh City",
        "country": "VIETNAM",
        "iata": "SGN",
        "icao": "VVTS",
        "lat": "10.818790",
        "lon": "106.651802",
        "name": "Ho Chi Minh City International Airport"
    }
]