[
    {
        "city": "Tirana",
        "country": "ALBANIA",
        "iata": "TIA",
        "icao": "LATI",
        "lat": "41.414742",
        "lon": "19.720560",
        "name": "Tirana International Airport"
    },
    {
        "city": "Vienna",
        "country": "AUSTRIA",
        "iata": "VIE",
        "icao": "LOWW",
        "lat": "48.110271",
        "lon": "16.569719",
        "name": "Vienna International Airport"
    },
    {
        "city": "Brussels",
        "country": "BELGIUM",
        "iata": "BRU",
        "icao": "EBBR",
        "lat": "50.901379",
        "lon": "4.484444",
        "name": "Brussels Airport"
    },
    {
        "city": "Brussels",
        "country": "BELGIUM",
        "iata": "CRL",
        "icao": "EBCI",
        "lat": "50.459999",
        "lon": "4.452778",
        "name": "Brussels South Charleroi Airport"
    },
    {
        "city": "Sofia",
        "country": "BULGARIA",
        "iata": "SOF",
        "icao": "LBSF",
        "lat": "42.695190",
        "lon": "23.406160",
        "name": "Sofia Airport"
    },
    {
        "city": "Varna",
        "country": "BULGARIA",
        "iata": "VAR",
        "icao": "LBWN",
        "lat": "43.232071",
        "lon": "27.825100",
        "name": "Varna Airport"
    },
    {
        "city": "Zagreb",
        "country": "CROATIA",
        "iata": "ZAG",
        "icao": "LDZA",
        "lat": "45.742931",
        "lon": "16.068769",
        "name": "Zagreb Franjo Tudman Airport"
    },
    {
        "city": "Larnaca",
        "country": "CYPRUS",
        "iata": "LCA",
        "icao": "LCLK",
        "lat": "34.875111",
        "lon": "33.624851",
        "name": "Larnaca International Airport"
    },
    {
        "city": "Pafos",
        "country": "CYPRUS",
        "iata": "PFO",
        "icao": "LCPH",
        "lat": "34.718277",
        "lon": "32.484398",
        "name": "Paphos International Airport"
    },
    {
        "city": "Prague",
        "country": "CZECHIA",
        "iata": "PRG",
        "icao": "LKPR",
        "lat": "50.100830",
        "lon": "14.260000",
        "name": "Prague Vaclav Havel Airport"
    },
    {
        "city": "Copenhagen",
        "country": "DENMARK",
        "iata": "CPH",
        "icao": "EKCH",
        "lat": "55.616959",
        "lon": "12.645637",
        "name": "Copenhagen Airport"
    },
    {
        "city": "Djibouti",
        "country": "DJIBOUTI",
        "iata": "JIB",
        "icao": "HDAM",
        "lat": "11.547330",
        "lon": "43.159481",
        "name": "Djibouti Ambouli International Airport"
    },
    {
        "city": "Hurghada",
        "country": "EGYPT",
        "iata": "HRG",
        "icao": "HEGN",
        "lat": "27.178310",
        "lon": "33.799431",
        "name": "Hurghada International Airport"
    },
    {
        "city": "Sharm el-Sheikh",
        "country": "EGYPT",
        "iata": "SSH",
        "icao": "HESH",
        "lat": "27.977280",
        "lon": "34.394951",
        "name": "Sharm el-Sheikh International Airport"
    },
    {
        "city": "Basel",
        "country": "FRANCE",
        "iata": "BSL",
        "icao": "LFSB",
        "lat": "47.598900",
        "lon": "7.528300",
        "name": "Basel Mulhouse-Freiburg EuroAirport"
    },
    {
        "city": "Nice",
        "country": "FRANCE",
        "iata": "NCE",
        "icao": "LFMN",
        "lat": "43.665272",
        "lon": "7.215000",
        "name": "Nice Cote d'Azur Airport"
    },
    {
        "city": "Paris",
        "country": "FRANCE",
        "iata": "BVA",
        "icao": "LFOB",
        "lat": "49.454441",
        "lon": "2.112778",
        "name": "Paris Beauvais-Tille Airport"
    },
    {
        "city": "Paris",
        "country": "FRANCE",
        "iata": "CDG",
        "icao": "LFPG",
        "lat": "49.012516",
        "lon": "2.555752",
        "name": "Paris Charles de Gaulle Airport"
    },
    {
        "city": "Berlin",
        "country": "GERMANY",
        "iata": "BER",
        "icao": "EDDB",
        "lat": "52.362877",
        "lon": "13.503722",
        "name": "Berlin Brandenburg Airport"
    },
    {
        "city": "Bremen",
        "country": "GERMANY",
        "iata": "BRE",
        "icao": "EDDW",
        "lat": "53.047501",
        "lon": "8.786667",
        "name": "Bremen Airport"
    },
    {
        "city": "Cologne",
        "country": "GERMANY",
        "iata": "CGN",
        "icao": "EDDK",
        "lat": "50.866001",
        "lon": "7.143000",
        "name": "Cologne Bonn Airport"
    },
    {
        "city": "Dortmund",
        "country": "GERMANY",
        "iata": "DTM",
        "icao": "EDLW",
        "lat": "51.518311",
        "lon": "7.612242",
        "name": "Dortmund Airport"
    },
    {
        "city": "Frankfurt",
        "country": "GERMANY",
        "iata": "FRA",
        "icao": "EDDF",
        "lat": "50.037796",
        "lon": "8.555783",
        "name": "Frankfurt Airport"
    },
    {
        "city": "Frankfurt",
        "country": "GERMANY",
        "iata": "HHN",
        "icao": "EDFH",
        "lat": "49.948669",
        "lon": "7.263892",
        "name": "Frankfurt Hahn Airport"
    },
    {
        "city": "Hamburg",
        "country": "GERMANY",
        "iata": "HAM",
        "icao": "EDDH",
        "lat": "53.630379",
        "lon": "9.988228",
        "name": "Hamburg Airport"
    },
    {
        "city": "Karlsruhe/Baden-Baden",
        "country": "GERMANY",
        "iata": "FKB",
        "icao": "EDSB",
        "lat": "48.779350",
        "lon": "8.080500",
        "name": "Karlsruhe/Baden-Baden Airport"
    },
    {
        "city": "Leipzig",
        "country": "GERMANY",
        "iata": "LEJ",
        "icao": "EDDP",
        "lat": "51.432442",
        "lon": "12.241630",
        "name": "Leipzig Halle Airport"
    },
    {
        "city": "Memmingen",
        "country": "GERMANY",
        "iata": "FMM",
        "icao": "EDJA",
        "lat": "47.988609",
        "lon": "10.239444",
        "name": "Memmingen Airport"
    },
    {
        "city": "Munich",
        "country": "GERMANY",
        "iata": "MUC",
        "icao": "EDDM",
        "lat": "48.353779",
        "lon": "11.786080",
        "name": "Munich Airport"
    },
    {
        "city": "Nuremberg",
        "country": "GERMANY",
        "iata": "NUE",
        "icao": "EDDN",
        "lat": "49.498699",
        "lon": "11.066890",
        "name": "Nuremberg Airport"
    },
    {
        "city": "Athens",
        "country": "GREECE",
        "iata": "ATH",
        "icao": "LGAV",
        "lat": "37.936352",
        "lon": "23.944460",
        "name": "Athens Eleftherios Venizelos"
    },
    {
        "city": "Budapest",
        "country": "HUNGARY",
        "iata": "BUD",
        "icao": "LHBP",
        "lat": "47.436932",
        "lon": "19.255590",
        "name": "Budapest Ferenc Liszt International Airport"
    },
    {
        "city": "Dublin",
        "country": "IRELAND",
        "iata": "DUB",
        "icao": "EIDW",
        "lat": "53.421379",
        "lon": "-6.270000",
        "name": "Dublin Airport"
    },
    {
        "city": "Tel Aviv",
        "country": "ISRAEL",
        "iata": "TLV",
        "icao": "LLBG",
        "lat": "32.011379",
        "lon": "34.886662",
        "name": "Tel Aviv Ben Gurion International Airport"
    },
    {
        "city": "Bari",
        "country": "ITALY",
        "iata": "BRI",
        "icao": "LIBD",
        "lat": "41.138851",
        "lon": "16.760590",
        "name": "Bari Karol Wojtyla Airport"
    },
    {
        "city": "Bologna",
        "country": "ITALY",
        "iata": "BLQ",
        "icao": "LIPE",
        "lat": "44.535439",
        "lon": "11.288660",
        "name": "Bologna Guglielmo Marconi Airport"
    },
    {
        "city": "Catania",
        "country": "ITALY",
        "iata": "CTA",
        "icao": "LICC",
        "lat": "37.466782",
        "lon": "15.066400",
        "name": "Catania Fontanarossa Airport"
    },
    {
        "city": "Milan",
        "country": "ITALY",
        "iata": "BGY",
        "icao": "LIME",
        "lat": "45.668304",
        "lon": "9.704209",
        "name": "Milan Bergamo Orio al Serio International Airport"
    },
    {
        "city": "Naples",
        "country": "ITALY",
        "iata": "NAP",
        "icao": "LIRN",
        "lat": "40.886028",
        "lon": "14.290780",
        "name": "Naples Airport"
    },
    {
        "city": "Rome",
        "country": "ITALY",
        "iata": "CIA",
        "icao": "LIRA",
        "lat": "41.799358",
        "lon": "12.594930",
        "name": "Rome Ciampino Airport"
    },
    {
        "city": "Rome",
        "country": "ITALY",
        "iata": "FCO",
        "icao": "LIRF",
        "lat": "41.804470",
        "lon": "12.250790",
        "name": "Rome Leonardo da Vinci Fiumicino Airport"
    },
    {
        "city": "Venice",
        "country": "ITALY",
        "iata": "TSF",
        "icao": "LIPH",
        "lat": "45.648399",
        "lon": "12.194420",
        "name": "Venice Treviso Airport"
    },
    {
        "city": "Malta",
        "country": "MALTA",
        "iata": "MLA",
        "icao": "LMML",
        "lat": "35.857491",
        "lon": "14.477500",
        "name": "Malta Luqa International Airport"
    },
    {
        "city": "Chisinau",
        "country": "MOLDOVA",
        "iata": "KIV",
        "icao": "LUKK",
        "lat": "46.927738",
        "lon": "28.930969",
        "name": "Chisinau International Airport"
    },
    {
        "city": "Amsterdam",
        "country": "NETHERLANDS",
        "iata": "AMS",
        "icao": "EHAM",
        "lat": "52.308609",
        "lon": "4.763889",
        "name": "Amsterdam Schiphol Airport"
    },
    {
        "city": "Eindhoven",
        "country": "NETHERLANDS",
        "iata": "EIN",
        "icao": "EHEH",
        "lat": "51.450130",
        "lon": "5.374528",
        "name": "Eindhoven Airport"
    },
    {
        "city": "Warsaw",
        "country": "POLAND",
        "iata": "WAW",
        "icao": "EPWA",
        "lat": "52.165749",
        "lon": "20.967119",
        "name": "Warsaw Chopin Airport"
    },
    {
        "city": "Wroclaw",
        "country": "POLAND",
        "iata": "WRO",
        "icao": "EPWR",
        "lat": "51.102680",
        "lon": "16.885830",
        "name": "Wroclaw Copernicus Airport"
    },
    {
        "city": "Funchal",
        "country": "PORTUGAL",
        "iata": "FNC",
        "icao": "LPMA",
        "lat": "32.697880",
        "lon": "-16.774401",
        "name": "Funchal Cristiano Ronaldo Airport"
    },
    {
        "city": "Lisbon",
        "country": "PORTUGAL",
        "iata": "LIS",
        "icao": "LPPT",
        "lat": "38.781311",
        "lon": "-9.135910",
        "name": "Lisbon Humberto Delgado Airport"
    },
    {
        "city": "Doha",
        "country": "QATAR",
        "iata": "DOH",
        "icao": "OTHH",
        "lat": "25.272524",
        "lon": "51.608604",
        "name": "Doha Hamad International Airport"
    },
    {
        "city": "Bucharest",
        "country": "ROMANIA",
        "iata": "OTP",
        "icao": "LROP",
        "lat": "44.572159",
        "lon": "26.102171",
        "name": "Bucharest Henri Coanda International Airport"
    },
    {
        "city": "Belgrade",
        "country": "SERBIA",
        "iata": "BEG",
        "icao": "LYBE",
        "lat": "44.818439",
        "lon": "20.309130",
        "name": "Belgrade Nikola Tesla Airport"
    },
    {
        "city": "Bratislava",
        "country": "SLOVAKIA",
        "iata": "BTS",
        "icao": "LZIB",
        "lat": "48.170158",
        "lon": "17.212660",
        "name": "Bratislava M. R. Stefanik Airport"
    },
    {
        "city": "Alicante",
        "country": "SPAIN",
        "iata": "ALC",
        "icao": "LEAL",
        "lat": "38.282162",
        "lon": "-0.558150",
        "name": "Alicante Airport"
    },
    {
        "city": "Barcelona",
        "country": "SPAIN",
        "iata": "BCN",
        "icao": "LEBL",
        "lat": "41.297070",
        "lon": "2.078463",
        "name": "Barcelona El Prat Airport"
    },
    {
        "city": "Madrid",
        "country": "SPAIN",
        "iata": "MAD",
        "icao": "LEMD",
        "lat": "40.488701",
        "lon": "-3.570000",
        "name": "Madrid Barajas Airport"
    },
    {
        "city": "Malaga",
        "country": "SPAIN",
        "iata": "AGP",
        "icao": "LEMG",
        "lat": "36.679596",
        "lon": "-4.496117",
        "name": "Malaga Costa Del Sol Airport"
    },
    {
        "city": "Palma de Mallorca",
        "country": "SPAIN",
        "iata": "PMI",
        "icao": "LEPA",
        "lat": "39.551670",
        "lon": "2.738808",
        "name": "Palma de Mallorca Airport"
    },
    {
        "city": "Valencia",
        "country": "SPAIN",
        "iata": "VLC",
        "icao": "LEVC",
        "lat": "39.489311",
        "lon": "-0.481620",
        "name": "Valencia Airport"
    },
    {
        "city": "Stockholm",
        "country": "SWEDEN",
        "iata": "NYO",
        "icao": "ESKN",
        "lat": "58.788631",
        "lon": "16.912180",
        "name": "Stockholm Skavsta Airport"
    },
    {
        "city": "Geneva",
        "country": "SWITZERLAND",
        "iata": "GVA",
        "icao": "LSGG",
        "lat": "46.238060",
        "lon": "6.108950",
        "name": "Geneva International Airport"
    },
    {
        "city": "Zurich",
        "country": "SWITZERLAND",
        "iata": "ZRH",
        "icao": "LSZH",
        "lat": "47.464722",
        "lon": "8.549167",
        "name": "Zurich Airport"
    },
    {
        "city": "Phuket",
        "country": "THAILAND",
        "iata": "HKT",
        "icao": "VTSP",
        "lat": "8.113200",
        "lon": "98.316872",
        "name": "Phuket International Airport"
    },
    {
        "city": "Antalya",
        "country": "TURKEY",
        "iata": "AYT",
        "icao": "LTAI",
        "lat": "36.898731",
        "lon": "30.800461",
        "name": "Antalya Airport"
    },
    {
        "city": "Istanbul",
        "country": "TURKEY",
        "iata": "IST",
        "icao": "LTFM",
        "lat": "41.267052",
        "lon": "28.729757",
        "name": "Istanbul Airport"
    },
    {
        "city": "Istanbul",
        "country": "TURKEY",
        "iata": "SAW",
        "icao": "LTFJ",
        "lat": "40.898548",
        "lon": "29.309210",
        "name": "Istanbul Sabiha Gokcen International Airport"
    },
    {
        "city": "Abu Dhabi",
        "country": "UNITED ARAB EMIRATES",
        "iata": "AUH",
        "icao": "OMAA",
        "lat": "24.432970",
        "lon": "54.651131",
        "name": "Abu Dhabi International Airport"
    },
    {
        "city": "Dubai",
        "country": "UNITED ARAB EMIRATES",
        "iata": "DXB",
        "icao": "OMDB",
        "lat": "25.252769",
        "lon": "55.364441",
        "name": "Dubai International Airport"
    },
    {
        "city": "Dubai",
        "country": "UNITED ARAB EMIRATES",
        "iata": "DWC",
        "icao": "OMDW",
        "lat": "24.886110",
        "lon": "55.172222",
        "name": "Dubai World Central International Airport"
    },
    {
        "city": "Birmingham",
        "country": "UNITED KINGDOM",
        "iata": "BHX",
        "icao": "EGBB",
        "lat": "52.453850",
        "lon": "-1.748020",
        "name": "Birmingham Airport"
    },
    {
        "city": "Edinburgh",
        "country": "UNITED KINGDOM",
        "iata": "EDI",
        "icao": "EGPH",
        "lat": "55.950001",
        "lon": "-3.372500",
        "name": "Edinburgh Airport"
    },
    {
        "city": "Farnborough",
        "country": "UNITED KINGDOM",
        "iata": "FAB",
        "icao": "EGLF",
        "lat": "51.275829",
        "lon": "-0.776330",
        "name": "Farnborough Airport"
    },
    {
        "city": "Liverpool",
        "country": "UNITED KINGDOM",
        "iata": "LPL",
        "icao": "EGGP",
        "lat": "53.333611",
        "lon": "-2.849720",
        "name": "Liverpool John Lennon Airport"
    },
    {
        "city": "London",
        "country": "UNITED KINGDOM",
        "iata": "LGW",
        "icao": "EGKK",
        "lat": "51.148048",
        "lon": "-0.190270",
        "name": "London Gatwick Airport"
    },
    {
        "city": "London",
        "country": "UNITED KINGDOM",
        "iata": "LHR",
        "icao": "EGLL",
        "lat": "51.471626",
        "lon": "-0.467081",
        "name": "London Heathrow Airport"
    },
    {
        "city": "London",
        "country": "UNITED KINGDOM",
        "iata": "LTN",
        "icao": "EGGW",
        "lat": "51.874722",
        "lon": "-0.368330",
        "name": "London Luton Airport"
    },
    {
        "city": "London",
        "country": "UNITED KINGDOM",
        "iata": "STN",
        "icao": "EGSS",
        "lat": "51.884998",
        "lon": "0.235000",
        "name": "London Stansted Airport"
    },
    {
        "city": "Manchester",
        "country": "UNITED KINGDOM",
        "iata": "MAN",
        "icao": "EGCC",
        "lat": "53.353741",
        "lon": "-2.274950",
        "name": "Manchester Airport"
    },
    {
        "city": "Northolt",
        "country": "UNITED KINGDOM",
        "iata": "NHT",
        "icao": "EGWU",
        "lat": "51.553001",
        "lon": "-0.418160",
        "name": "RAF Northolt"
    }
]